[
    {
        "city": "New York",
        "state": "NY",
        "state_full": "New York",
        "population": 8336817,
        "latitude": 40.7128,
        "longitude": -74.0060
    },
    {
        "city": "Los Angeles",
        "state": "CA",
        "state_full": "California",
        "population": 3979576,
        "latitude": 34.0522,
        "longitude": -118.2437
    },
    {
        "city": "Chicago",
        "state": "IL",
        "state_full": "Illinois",
        "population": 2693976,
        "latitude": 41.8781,
        "longitude": -87.6298
    },
    {
        "city": "Houston",
        "state": "TX",
        "state_full": "Texas",
        "population": 2320268,
        "latitude": 29.7604,
        "longitude": -95.3698
    },
    {
        "city": "Phoenix",
        "state": "AZ",
        "state_full": "Arizona",
        "population": 1680992,
        "latitude": 33.4484,
        "longitude": -112.0740
    },
    {
        "city": "Philadelphia",
        "state": "PA",
        "state_full": "Pennsylvania",
        "population": 1584064,
        "latitude": 39.9526,
        "longitude": -75.1652
    },
    {
        "city": "San Antonio",
        "state": "TX",
        "state_full": "Texas",
        "population": 1547253,
        "latitude": 29.4241,
        "longitude": -98.4936
    },
    {
        "city": "San Diego",
        "state": "CA",
        "state_full": "California",
        "population": 1423851,
        "latitude": 32.7157,
        "longitude": -117.1611
    },
    {
        "city": "Dallas",
        "state": "TX",
        "state_full": "Texas",
        "population": 1343573,
        "latitude": 32.7767,
        "longitude": -96.7970
    },
    {
        "city": "San Jose",
        "state": "CA",
        "state_full": "California",
        "population": 1021795,
        "latitude": 37.3382,
        "longitude": -121.8863
    },
    {
        "city": "Austin",
        "state": "TX",
        "state_full": "Texas",
        "population": 978908,
        "latitude": 30.2672,
        "longitude": -97.7431
    },
    {
        "city": "Jacksonville",
        "state": "FL",
        "state_full": "Florida",
        "population": 911507,
        "latitude": 30.3322,
        "longitude": -81.6557
    }
]

